{"version":"1.0.0","updated_at":"2017-10-21T13:27:47.510Z","nodes":[{"id":"521b1d3cb9fd","name":"Hood-1-Gateway-1","status":{"lastcontact":"2017-10-21T13:26:59.045Z","firstcontact":"2017-10-03T18:20:54.527Z","online":true,"clients":0}},{"id":"ec086b56d976","name":"AWO-Sozialbuero","status":{"lastcontact":"2017-10-21T13:27:07.765Z","firstcontact":"2017-10-03T18:20:54.849Z","online":true,"clients":0},"position":{"lat":54.713693,"long":9.667077}},{"id":"e8de273040a0","name":"TestNeuesVPN-Mesh-Versuch3","status":{"lastcontact":"2017-10-21T13:27:06.361Z","firstcontact":"2017-10-03T18:20:58.591Z","online":true,"clients":0},"position":{"lat":54.759385,"long":9.189728}},{"id":"0018714d5b5e","name":"Tarp-Futro-Gemeindehaus","status":{"lastcontact":"2017-10-21T13:27:05.766Z","firstcontact":"2017-10-06T10:04:17.857Z","online":true,"clients":0},"position":{"lat":54.66598558,"long":9.40092802}},{"id":"c46e1fa11d72","name":"Tarp-Gemeindehaus","status":{"lastcontact":"2017-10-21T13:27:08.989Z","firstcontact":"2017-10-06T10:04:19.055Z","online":true,"clients":0},"position":{"lat":54.66589848,"long":9.4009891}},{"id":"8276ee8e57d9","name":"Hood-3-Gateway-3","status":{"lastcontact":"2017-10-09T09:54:45.771Z","firstcontact":"2017-10-09T09:35:45.642Z","online":false,"clients":0}},{"id":"98ded065bf2e","name":"CPE510FWtest","status":{"lastcontact":"2017-10-09T09:54:54.010Z","firstcontact":"2017-10-09T09:35:45.904Z","online":false,"clients":1},"position":{"lat":54.69271696,"long":9.6006614}},{"id":"ec086b56c9d6","name":"Gremmerup-01","status":{"lastcontact":"2017-10-09T09:54:55.819Z","firstcontact":"2017-10-09T09:35:46.172Z","online":false,"clients":1},"position":{"lat":54.781924,"long":9.575392}},{"id":"60e3275fed4e","name":"Ausacker-01","status":{"lastcontact":"2017-10-09T09:54:51.555Z","firstcontact":"2017-10-09T09:35:46.529Z","online":false,"clients":0},"position":{"lat":54.74021556,"long":9.57042754}},{"id":"90f652f26f7c","name":"Nordrunner03","status":{"lastcontact":"2017-10-09T09:54:52.266Z","firstcontact":"2017-10-09T09:35:47.703Z","online":false,"clients":1}},{"id":"18d6c751662e","name":"Gaststätte Husby","status":{"lastcontact":"2017-10-09T09:54:53.055Z","firstcontact":"2017-10-09T09:35:49.015Z","online":false,"clients":0},"position":{"lat":54.76607484,"long":9.5749741}},{"id":"30b5c29b4a3a","name":"Nordrunner01","status":{"lastcontact":"2017-10-09T09:54:47.553Z","firstcontact":"2017-10-09T09:35:49.133Z","online":false,"clients":1},"position":{"lat":54.69282,"long":9.600592}},{"id":"10feed3ba4f6","name":"Ausacker-02","status":{"lastcontact":"2017-10-09T09:54:55.287Z","firstcontact":"2017-10-09T09:35:49.329Z","online":false,"clients":0},"position":{"lat":54.74033,"long":9.571663}},{"id":"647002b67571","name":"Event-01","status":{"lastcontact":"2017-10-09T09:54:54.575Z","firstcontact":"2017-10-09T09:35:50.140Z","online":false,"clients":0}},{"id":"8416f9e8acd0","name":"Begegnungsstätte","status":{"lastcontact":"2017-10-09T09:54:48.498Z","firstcontact":"2017-10-09T09:35:50.821Z","online":false,"clients":0},"position":{"lat":54.7644067,"long":9.5794183}},{"id":"60e327603a1e","name":"Ferienwohnung-Ausacker","status":{"lastcontact":"2017-10-09T09:54:53.315Z","firstcontact":"2017-10-09T09:35:50.912Z","online":false,"clients":0},"position":{"lat":54.74015982,"long":9.5702827}},{"id":"30b5c2274cfe","name":"Nordrunner02","status":{"lastcontact":"2017-10-09T09:54:55.794Z","firstcontact":"2017-10-09T09:35:51.903Z","online":false,"clients":4}},{"id":"18d6c7516280","name":"Tarp-Eulencup-03","status":{"lastcontact":"2017-10-09T09:54:54.697Z","firstcontact":"2017-10-09T09:35:51.968Z","online":false,"clients":0},"position":{"lat":54.63282,"long":9.767011}},{"id":"8416f9e89604","name":"Husby_Gemeindehaus","status":{"lastcontact":"2017-10-09T09:54:53.456Z","firstcontact":"2017-10-09T09:35:52.547Z","online":false,"clients":0},"position":{"lat":54.76541564,"long":9.57718134}},{"id":"14cc20cd1efc","name":"SpieleMatz","status":{"lastcontact":"2017-10-09T09:54:55.319Z","firstcontact":"2017-10-09T09:48:43.737Z","online":false,"clients":1}}]}