{"version":"1.0.0","updated_at":"2017-10-21T13:27:47.702Z","nodes":[{"id":"60e327603a1e","name":"Ferienwohnung-Ausacker","status":{"lastcontact":"2017-10-21T13:27:22.891Z","firstcontact":"2017-08-10T19:10:53.121Z","online":true,"clients":1},"position":{"lat":54.74015982,"long":9.5702827}},{"id":"ec086b56c9d6","name":"Gremmerup-01","status":{"lastcontact":"2017-10-20T14:27:58.336Z","firstcontact":"2017-08-10T19:10:58.383Z","online":false,"clients":2},"position":{"lat":54.781924,"long":9.575392}},{"id":"60e3275fed4e","name":"Ausacker-01","status":{"lastcontact":"2017-10-21T13:27:23.477Z","firstcontact":"2017-08-10T19:10:59.284Z","online":true,"clients":0},"position":{"lat":54.74021556,"long":9.57042754}},{"id":"8416f9e8acd0","name":"Begegnungsstätte","status":{"lastcontact":"2017-10-21T13:27:16.058Z","firstcontact":"2017-08-16T10:47:31.235Z","online":true,"clients":0},"position":{"lat":54.7644067,"long":9.5794183}},{"id":"8416f9e89604","name":"Husby_Gemeindehaus","status":{"lastcontact":"2017-10-21T13:27:19.332Z","firstcontact":"2017-08-16T10:47:31.427Z","online":true,"clients":0},"position":{"lat":54.76541564,"long":9.57718134}},{"id":"98ded065bf2e","name":"CPE510FWtest","status":{"lastcontact":"2017-10-21T13:27:23.770Z","firstcontact":"2017-08-16T10:47:34.893Z","online":true,"clients":1},"position":{"lat":54.69271696,"long":9.6006614}},{"id":"8276ee8e57d9","name":"Hood-3-Gateway-3","status":{"lastcontact":"2017-10-21T13:27:13.946Z","firstcontact":"2017-08-24T13:42:35.088Z","online":true,"clients":0}},{"id":"18d6c751662e","name":"Gaststätte Husby","status":{"lastcontact":"2017-10-21T13:27:22.777Z","firstcontact":"2017-08-26T05:55:51.475Z","online":true,"clients":3},"position":{"lat":54.76607484,"long":9.5749741}},{"id":"18d6c7516280","name":"Tarp-Eulencup-03","status":{"lastcontact":"2017-10-21T13:27:23.899Z","firstcontact":"2017-09-07T20:41:08.344Z","online":true,"clients":0},"position":{"lat":54.63282,"long":9.767011}},{"id":"14cc20cd1efc","name":"SpieleMatz","status":{"lastcontact":"2017-10-20T15:09:17.657Z","firstcontact":"2017-10-03T10:11:09.974Z","online":false,"clients":0}},{"id":"90f652f26f7c","name":"Nordrunner03","status":{"lastcontact":"2017-10-21T13:27:22.006Z","firstcontact":"2017-10-03T16:52:00.964Z","online":true,"clients":2}},{"id":"30b5c2274cfe","name":"Nordrunner02","status":{"lastcontact":"2017-10-21T13:27:22.854Z","firstcontact":"2017-10-03T17:52:03.760Z","online":true,"clients":5}},{"id":"30b5c29b4a3a","name":"Nordrunner01","status":{"lastcontact":"2017-10-21T13:27:18.377Z","firstcontact":"2017-10-03T18:21:12.427Z","online":true,"clients":1},"position":{"lat":54.69282,"long":9.600592}},{"id":"10feed3ba4f6","name":"Ausacker-02","status":{"lastcontact":"2017-10-21T13:27:15.519Z","firstcontact":"2017-10-06T12:44:28.463Z","online":true,"clients":0},"position":{"lat":54.74033,"long":9.571663}},{"id":"647002b67571","name":"Event-01","status":{"lastcontact":"2017-10-21T13:27:19.892Z","firstcontact":"2017-10-06T13:02:42.550Z","online":true,"clients":0}},{"id":"ec086b56d976","name":"AWO-Sozialbuero","status":{"lastcontact":"2017-10-09T09:55:09.204Z","firstcontact":"2017-10-06T16:36:55.006Z","online":false,"clients":0},"position":{"lat":54.713693,"long":9.667077}},{"id":"0018714d5b5e","name":"Tarp-Futro-Gemeindehaus","status":{"lastcontact":"2017-10-09T09:54:40.837Z","firstcontact":"2017-10-09T09:35:38.942Z","online":false,"clients":0},"position":{"lat":54.66598558,"long":9.40092802}},{"id":"e8de273040a0","name":"TestNeuesVPN-Mesh-Versuch3","status":{"lastcontact":"2017-10-09T09:55:05.759Z","firstcontact":"2017-10-09T09:35:39.140Z","online":false,"clients":0},"position":{"lat":54.759385,"long":9.189728}},{"id":"c46e1fa11d72","name":"Tarp-Gemeindehaus","status":{"lastcontact":"2017-10-09T09:54:41.144Z","firstcontact":"2017-10-09T09:35:39.775Z","online":false,"clients":0},"position":{"lat":54.66589848,"long":9.4009891}},{"id":"521b1d3cb9fd","name":"Hood-1-Gateway-1","status":{"lastcontact":"2017-10-09T09:55:04.609Z","firstcontact":"2017-10-09T09:35:54.393Z","online":false,"clients":0}},{"id":"ec086b2bb498","name":"FF_SL_FL_Kappeln_Jockel_00","status":{"lastcontact":"2017-10-21T13:27:14.210Z","firstcontact":"2017-10-18T22:30:39.171Z","online":true,"clients":2},"position":{"lat":54.657651,"long":9.924887}},{"id":"30b5c2229cf0","name":"FF_SL_FL_Kappeln_Jockel_01","status":{"lastcontact":"2017-10-21T13:27:20.329Z","firstcontact":"2017-10-18T22:50:43.777Z","online":true,"clients":0},"position":{"lat":54.657695,"long":9.924796}},{"id":"d46e0ed03404","name":"FF_SLFL_Kappeln-Jockel_00","status":{"lastcontact":"2017-10-21T13:27:20.995Z","firstcontact":"2017-10-20T09:23:40.329Z","online":true,"clients":0},"position":{"lat":54.65763288,"long":9.92482781}},{"id":"d46e0ed031f2","name":"FF_SLFL_Kappeln-Jockel_01","status":{"lastcontact":"2017-10-21T13:27:19.505Z","firstcontact":"2017-10-20T10:32:09.149Z","online":true,"clients":0},"position":{"lat":54.65767632,"long":9.92471516}},{"id":"c46e1f2ccb84","name":"Tarp_Test2","status":{"lastcontact":"2017-10-21T07:20:15.501Z","firstcontact":"2017-10-20T17:19:06.276Z","online":false,"clients":0},"position":{"lat":54.65444276,"long":9.41032112}},{"id":"e8de27660d0e","name":"Tarp_Garage","status":{"lastcontact":"2017-10-21T07:20:09.999Z","firstcontact":"2017-10-20T17:19:07.468Z","online":false,"clients":3},"position":{"lat":54.65448,"long":9.41000998}}]}